City,Lat,Lon,Temp,Humidity,Cloudiness,Wind Speed,Country,Date
Río Gallegos,-51.6226,-69.2181,66.25,37,75,16.11,AR,1643831111
Busselton,-33.65,115.3333,67.05,49,100,15.1,AU,1643831111
Tateyama,34.9833,139.8667,37.42,53,39,8.72,JP,1643831111
Manali,13.1667,80.2667,77.07,75,9,5.86,IN,1643831112
Kapaa,22.0752,-159.319,74.48,71,0,6.91,US,1643831112
Vaini,-21.2,-175.2,78.96,83,20,3.44,TO,1643831113
Umeå,63.8284,20.2597,15.73,92,100,8.05,SE,1643831113
Norman Wells,65.282,-126.8329,-29.16,68,75,0.0,CA,1643831113
Lichinga,-13.3128,35.2406,68.09,88,75,4.61,MZ,1643831114
Kruisfontein,-34.0033,24.7314,71.89,91,100,8.21,ZA,1643830819
Severo-Kuril'sk,50.6789,156.125,26.29,83,95,6.87,RU,1643830556
Ābdānān,32.9926,47.4198,46.81,44,44,3.87,IR,1643831115
Eyrarbakki,63.863,-21.1481,26.65,79,100,5.14,IS,1643831115
Berlevåg,70.8578,29.0864,17.55,93,40,9.22,NO,1643831115
Mehamn,71.0357,27.8492,23.18,82,100,7.63,NO,1643831116
Albany,42.6001,-73.9662,45.57,72,89,3.0,US,1643831052
Uşak Province,38.5,29.4167,37.65,91,100,10.89,TR,1643831116
Ponta do Sol,32.6667,-17.1,67.01,87,100,3.89,PT,1643831117
Yellowknife,62.456,-114.3525,-23.71,68,20,2.3,CA,1643831112
Avarua,-21.2078,-159.775,82.45,83,75,16.11,CK,1643831117
Kavieng,-2.5744,150.7967,77.36,86,100,13.0,PG,1643831117
Qasigiannguit,68.8193,-51.1922,1.65,68,41,11.63,GL,1643831118
Kiryat Gat,31.61,34.7642,60.4,59,99,6.06,IL,1643831118
Awjilah,29.1081,21.2869,54.23,58,72,13.76,LY,1643831118
Khatanga,71.9667,102.5,-37.91,99,52,1.66,RU,1643831119
Jiayuguan City,39.8167,98.3,22.41,35,100,7.7,CN,1643831119
Castro,-24.7911,-50.0119,75.94,71,40,1.25,BR,1643831115
Rio Grande,-32.035,-52.0986,87.91,70,0,17.0,BR,1643830944
East London,-33.0153,27.9116,75.74,92,56,18.88,ZA,1643831120
Pevek,69.7008,170.3133,-8.79,77,33,4.29,RU,1643831120
Cap Malheureux,-19.9842,57.6142,79.47,89,100,23.0,MU,1643831120
Banjar,-8.19,114.9675,84.06,90,96,5.1,ID,1643831121
Arraial do Cabo,-22.9661,-42.0278,82.36,78,40,11.5,BR,1643831112
Tezu,27.9167,96.1667,54.54,63,92,4.23,IN,1643831121
Kiruna,67.8557,20.2251,7.72,85,100,2.3,SE,1643831122
Ribeira Grande,38.5167,-28.7,59.4,72,20,6.91,PT,1643831122
Laguna,38.421,-121.4238,60.44,30,0,11.01,US,1643830867
Bredasdorp,-34.5322,20.0403,70.92,68,46,17.27,ZA,1643831111
Kamaishi,39.2667,141.8833,30.79,64,7,6.87,JP,1643831122
Jamestown,42.097,-79.2353,43.92,52,100,9.22,US,1643830979
Hong Kong,22.2855,114.1577,58.24,93,100,1.99,HK,1643831017
Hobart,-42.8794,147.3294,53.46,75,40,8.05,AU,1643831123
Kesteren,51.935,5.5694,49.01,92,100,4.0,NL,1643831123
Gurupá,-1.405,-51.64,86.0,62,24,5.79,BR,1643831124
Port Alfred,-33.5906,26.891,74.3,95,100,10.09,ZA,1643831096
Iroquois Falls,48.7669,-80.6831,10.54,80,100,8.84,CA,1643831124
Lesnoy,57.6198,63.0784,14.49,94,88,6.78,RU,1643831124
Atuona,-9.8,-139.0333,77.49,79,93,15.7,PF,1643831125
Nikolskoye,59.7035,30.7861,22.89,99,99,1.1,RU,1643831125
Cidreira,-30.1811,-50.2056,78.3,78,0,15.59,BR,1643831125
Chui,-33.6971,-53.4616,79.92,60,0,14.0,UY,1643831126
Carballo,43.213,-8.691,54.86,83,88,2.55,ES,1643831126
Vermillion,42.7794,-96.9292,12.02,26,100,13.87,US,1643831127
Narsaq,60.9167,-46.05,5.22,68,18,6.69,GL,1643831127
Carnarvon,-24.8667,113.6333,78.87,83,98,10.36,AU,1643831127
Gusau,12.1628,6.6614,71.37,12,32,8.88,NG,1643831128
Chokurdakh,70.6333,147.9167,-18.22,97,100,6.58,RU,1643831128
Rikitea,-23.1203,-134.9692,77.94,74,100,5.93,PF,1643831129
Rundu,-17.9333,19.7667,70.7,55,11,3.78,NA,1643831129
Bamiantong,44.9333,130.5333,-2.9,90,80,8.5,CN,1643831129
Auraiya,26.4667,79.5167,54.88,56,5,8.9,IN,1643831130
Gaza,31.5,34.4667,56.91,62,100,7.61,PS,1643831011
Riberalta,-10.9833,-66.1,80.8,78,75,6.91,BO,1643831130
Pangnirtung,66.1451,-65.7125,3.2,85,100,19.57,CA,1643831130
Geraldton,-28.7667,114.6,86.41,16,0,16.11,AU,1643830845
Saint Paul Harbor,57.79,-152.4072,36.91,87,100,3.44,US,1643831131
Itarema,-2.9248,-39.9167,82.47,70,50,12.97,BR,1643831131
Mulchén,-37.7167,-72.2333,87.66,20,0,5.5,CL,1643831131
Ushuaia,-54.8,-68.3,47.82,61,75,25.32,AR,1643831132
New Norfolk,-42.7826,147.0587,53.1,72,55,1.01,AU,1643831115
Labuan,5.2767,115.2417,79.16,88,20,5.01,MY,1643831132
Lavrentiya,65.5833,-171.0,0.1,69,1,20.31,RU,1643831127
Sur,22.5667,59.5289,73.15,53,3,17.63,OM,1643831133
Lebu,-37.6167,-73.65,64.87,77,34,10.67,CL,1643831133
Yenagoa,4.9247,6.2642,81.23,67,1,8.14,NG,1643831133
Den Helder,52.9599,4.7593,47.98,94,75,13.0,NL,1643831134
Tongliao,43.6125,122.2653,-4.16,87,2,7.61,CN,1643831134
Yulara,-25.2406,130.9889,66.04,68,100,9.22,AU,1643831135
Broome,42.2506,-75.833,42.37,69,0,1.99,US,1643831135
Upernavik,72.7868,-56.1549,-4.67,68,100,5.55,GL,1643831125
Thompson,55.7435,-97.8558,-14.64,58,0,17.27,CA,1643831123
Sorong,-0.8833,131.25,77.72,87,100,3.44,ID,1643831136
Tasiilaq,65.6145,-37.6368,14.16,71,100,6.87,GL,1643831136
Hermanus,-34.4187,19.2345,67.8,85,10,10.58,ZA,1643831103
Butaritari,3.0707,172.7902,80.73,81,41,17.83,KI,1643831137
Saint-François,46.4154,3.9054,45.84,87,100,3.44,FR,1643831137
Punta Arenas,-53.15,-70.9167,50.02,81,75,5.75,CL,1643831136
Dalvik,65.9702,-18.5286,24.73,84,98,3.85,IS,1643831137
Teya,60.3778,92.6267,13.32,95,100,5.01,RU,1643831138
Cabo San Lucas,22.8909,-109.9124,79.9,39,20,1.99,MX,1643831106
Bluff,-46.6,168.3333,56.8,72,100,15.08,NZ,1643831138
Moranbah,-22.0016,148.0466,77.59,84,100,5.95,AU,1643831139
Igrim,63.1906,64.4162,10.17,98,100,3.22,RU,1643831139
Camopi,3.1655,-52.3158,75.92,96,100,4.56,GF,1643831139
Yangi Marg`ilon,40.4272,71.7189,38.12,65,40,4.61,UZ,1643831140
Westport,41.1415,-73.3579,46.78,86,100,1.01,US,1643831140
Hasaki,35.7333,140.8333,25.2,45,51,5.03,JP,1643831140
Abhā,18.2164,42.5053,59.25,51,0,5.75,SA,1643830964
Hambantota,6.1241,81.1185,73.08,83,8,12.08,LK,1643831141
Sola,-13.8833,167.55,81.45,78,98,9.08,VU,1643831141
Barrow,71.2906,-156.7887,-21.98,76,0,3.44,US,1643831141
Nema,57.5067,50.5011,20.71,94,100,9.28,RU,1643831142
Kaitangata,-46.2817,169.8464,55.85,95,100,6.78,NZ,1643831104
Longyearbyen,78.2186,15.6401,19.24,68,87,14.97,SJ,1643830865
Santiago del Estero,-27.7951,-64.2615,104.85,14,6,10.71,AR,1643831143
Shihezi,44.3,86.0333,2.8,94,99,4.05,CN,1643831143
Nelson Bay,-32.7167,152.15,66.09,93,100,1.99,AU,1643831143
Price,39.5994,-110.8107,28.11,22,0,10.36,US,1643831144
Mar del Plata,-38.0023,-57.5575,87.82,50,0,11.99,AR,1643830894
Qaanaaq,77.484,-69.3632,-16.51,73,100,6.76,GL,1643831144
Airai,-8.9266,125.4092,60.31,88,100,2.26,TL,1643831144
Tūkrah,32.5341,20.5791,53.19,68,96,19.51,LY,1643831145
Cape Town,-33.9258,18.4232,69.89,85,75,7.0,ZA,1643830969
Abu Samrah,35.3029,37.1841,50.14,60,100,11.16,SY,1643831145
Katsuura,35.1333,140.3,37.51,54,22,10.65,JP,1643831145
Puerto Ayora,-0.7393,-90.3518,82.36,88,45,7.0,EC,1643831146
Rawson,-43.3002,-65.1023,81.79,30,100,7.81,AR,1643831146
Hofn,64.2539,-15.2082,24.82,86,0,8.05,IS,1643831146
Banda Aceh,5.5577,95.3222,77.47,85,52,6.2,ID,1643831147
Cobija,-11.0267,-68.7692,86.18,74,75,6.91,BO,1643831147
Bandarbeyla,9.4942,50.8122,75.47,72,27,18.7,SO,1643831147
Oranjemund,-28.55,16.4333,67.89,85,100,6.53,NA,1643831148
Cartagena,10.3997,-75.5144,89.22,58,20,13.8,CO,1643831148
Sredneuralsk,56.9892,60.4666,22.35,95,99,4.16,RU,1643831148
Flinders,-34.5833,150.8552,65.21,75,100,11.99,AU,1643831149
Nanortalik,60.1432,-45.2371,6.39,72,1,11.43,GL,1643831149
Batagay,67.6333,134.6333,-32.85,99,63,3.67,RU,1643831149
Vardø,70.3705,31.1107,28.38,93,100,23.02,NO,1643831150
Bambanglipuro,-7.95,110.2833,61.61,91,100,7.78,ID,1643831150
Ostrovnoy,68.0531,39.5131,20.91,87,100,15.7,RU,1643831150
Saint-Philippe,-21.3585,55.7679,81.95,93,100,31.65,RE,1643831125
Alice Springs,-23.7,133.8833,65.75,88,100,9.22,AU,1643831151
Mataura,-46.1927,168.8643,56.48,98,100,4.47,NZ,1643831120
Hervey Bay,-25.2986,152.8535,74.03,83,100,12.95,AU,1643831151
Karagaylinskiy,54.172,86.5521,1.35,100,94,1.97,RU,1643831152
Brigantine,39.4101,-74.3646,49.03,91,100,4.61,US,1643830953
Gijón,43.5357,-5.6615,53.46,91,65,3.0,ES,1643831152
Bubaque,11.2833,-15.8333,77.99,86,8,17.07,GW,1643831152
Tessalit,20.1986,1.0114,65.35,12,0,8.19,ML,1643831153
Antigonish,45.6169,-61.9986,34.83,75,95,8.99,CA,1643831114
Baykit,61.67,96.37,-4.67,100,100,1.48,RU,1643831153
Luanda,-8.8368,13.2343,77.0,78,20,11.5,AO,1643830961
Ancud,-41.8697,-73.8203,74.23,72,92,8.68,CL,1643831154
Korla,41.7597,86.1469,23.67,57,17,5.14,CN,1643830907
Tuktoyaktuk,69.4541,-133.0374,-27.4,68,40,9.22,CA,1643831099
Nemuro,43.3236,145.575,23.0,76,73,10.13,JP,1643831154
Egvekinot,66.3167,-179.1667,-8.18,79,7,21.0,RU,1643831155
Zaysan,47.4667,84.8667,-1.79,84,20,3.4,KZ,1643831155
Lagoa,39.05,-27.9833,58.33,73,0,8.9,PT,1643831155
Montoro,38.0241,-4.3834,59.47,52,35,3.31,ES,1643831156
Bethel,41.3712,-73.414,45.52,76,100,4.61,US,1643831156
Tres Palos,18.1833,-101.6167,86.79,34,0,6.55,MX,1643831156
Mount Isa,-20.7333,139.5,80.37,78,75,4.61,AU,1643831157
Emiliano Zapata,18.8333,-99.1833,85.82,34,0,6.91,MX,1643831157
Ahipara,-35.1667,173.1667,70.81,83,99,11.92,NZ,1643831158
Phan Thiet,10.9333,108.1,71.91,86,3,7.58,VN,1643831158
Alofi,-19.0595,-169.9187,73.29,100,100,4.61,NU,1643831158
Karpathos,35.507,27.2132,58.96,72,100,19.57,GR,1643831159
Almásfüzitő,47.7275,18.2615,43.34,70,42,19.06,HU,1643831159
Srednekolymsk,67.45,153.6833,-19.28,96,100,2.82,RU,1643831159
Mayumba,-3.432,10.6554,77.68,90,100,6.33,GA,1643831160
Kaka,37.3482,59.6143,46.29,36,0,5.57,TM,1643831160
Poço Verde,-10.7083,-38.1833,91.45,35,8,12.68,BR,1643831160
Talnakh,69.4865,88.3972,-2.79,99,95,6.24,RU,1643831161
Sarai,53.7458,41.0213,9.73,98,100,3.44,RU,1643831161
Vao,-22.6667,167.4833,77.76,81,100,17.36,NC,1643831161
Waipawa,-41.4122,175.5153,66.83,68,98,14.7,NZ,1643831162
Berbera,10.4396,45.0143,77.2,76,100,7.61,SO,1643831162
Kahului,20.8947,-156.47,76.96,69,20,0.0,US,1643831163
Eyl,7.9803,49.8164,74.62,75,8,16.55,SO,1643831163
Yuci,37.6803,112.7319,13.75,57,0,4.47,CN,1643831163
Belyy Yar,53.6039,91.3903,-18.51,76,100,0.0,RU,1643831164
Torbay,47.6666,-52.7314,29.75,80,20,9.22,CA,1643831164
Avera,33.194,-82.5271,65.08,65,82,7.67,US,1643831164
Coquimbo,-29.9533,-71.3436,69.53,64,0,14.97,CL,1643830996
Marawi,7.9986,124.2928,66.65,90,97,1.32,PH,1643831165
Hithadhoo,-0.6,73.0833,82.13,70,81,6.62,MV,1643831165
Itacaré,-14.2775,-38.9967,87.69,68,1,6.73,BR,1643831166
Presidencia Roque Sáenz Peña,-26.7852,-60.4388,107.92,13,50,9.15,AR,1643831166
Kenai,60.5544,-151.2583,17.65,86,100,9.22,US,1643831166
Dikson,73.5069,80.5464,-8.28,98,97,10.8,RU,1643831167
Leningradskiy,69.3833,178.4167,-14.01,96,30,10.18,RU,1643831167
Cherskiy,68.75,161.3,-12.06,63,62,1.7,RU,1643831167
Huilong,31.8111,121.655,40.03,72,99,7.07,CN,1643831168
Singkang,2.1006,102.7994,78.69,93,52,3.24,MY,1643831168
Iquitos,-3.7481,-73.2472,87.84,66,75,1.14,PE,1643831168
Novikovo,51.1537,37.8879,28.76,98,100,5.21,RU,1643831169
Bismarck,46.8083,-100.7837,2.88,68,100,11.5,US,1643831105
Yeppoon,-23.1333,150.7333,73.18,90,100,3.56,AU,1643831169
Otradnoye,59.7775,30.8181,23.05,99,99,1.16,RU,1643831170
Comodoro Rivadavia,-45.8667,-67.5,78.66,27,0,8.05,AR,1643831147
Gaya,24.7833,85.0,58.3,65,0,3.71,IN,1643831170
Letychiv,49.3826,27.6305,30.36,92,99,10.45,UA,1643831170
Booué,-0.0921,11.9385,74.98,91,80,3.38,GA,1643831171
Lompoc,34.6391,-120.4579,64.53,20,0,11.5,US,1643830905
Khovd,48.0056,91.6419,-4.41,96,98,1.41,MN,1643831171
Nyurba,63.2842,118.3319,-34.56,100,68,3.6,RU,1643831172
Ouadda,8.0777,22.4007,76.68,21,91,4.83,CF,1643831172
Gushikawa,26.3544,127.8686,69.03,95,100,3.44,JP,1643831172
Mahébourg,-20.4081,57.7,79.25,94,75,29.93,MU,1643831173
George Town,5.4112,100.3354,80.89,90,20,1.99,MY,1643831173
Nuuk,64.1835,-51.7216,9.21,47,75,13.8,GL,1643831173
Mago,53.2514,140.1822,-6.81,94,96,3.31,RU,1643831174
Makakilo City,21.3469,-158.0858,75.18,71,0,5.75,US,1643831174
Popondetta,-8.7537,148.2534,73.47,88,100,2.35,PG,1643831174
Hirara,24.8,125.2833,71.56,78,68,17.34,JP,1643831175
Itaituba,-4.2761,-55.9836,89.76,66,40,9.22,BR,1643831175
Saint-Pierre,-21.3393,55.4781,82.04,89,75,40.29,RE,1643831176
Xai-Xai,-25.0519,33.6442,76.62,80,0,10.49,MZ,1643830911
Taiyuan,37.8694,112.5603,13.86,57,0,4.47,CN,1643831176
Dawlatabad,36.4141,64.9053,44.53,75,34,0.6,AF,1643831176
Sistranda,63.7256,8.834,30.9,60,89,19.39,NO,1643831177
Tsumeb,-19.2333,17.7167,71.15,36,7,5.82,NA,1643831177
Agua Dulce,18.1333,-94.1333,82.13,67,0,3.56,MX,1643831177
Darjeeling,27.0333,88.2667,34.81,85,40,4.85,IN,1643831178
Prince Rupert,54.3161,-130.3201,42.49,93,100,5.75,CA,1643831178
Wencheng,33.0559,113.7978,32.99,54,100,3.0,CN,1643831178
Finschhafen,-6.6024,147.8681,79.39,82,100,13.15,PG,1643831179
Nakusp,50.2499,-117.8023,21.54,63,100,3.44,CA,1643831179
Richards Bay,-28.783,32.0377,78.08,79,5,14.67,ZA,1643831179
Chaman,30.9236,66.4512,42.15,70,0,8.12,PK,1643831180
Kumluca,36.3703,30.2869,58.68,82,100,14.27,TR,1643831180
Havelock,34.8791,-76.9013,64.38,62,75,4.0,US,1643831180
Tuatapere,-46.1333,167.6833,56.82,90,100,7.49,NZ,1643831181
Tarsus,36.9188,34.8784,53.47,80,99,9.91,TR,1643831181
Inírida,3.8653,-67.9239,88.23,50,93,4.34,CO,1643831181
Guerrero Negro,27.9769,-114.0611,63.64,53,4,15.1,MX,1643831182
Marsh Harbour,26.5412,-77.0636,72.3,56,16,18.84,BS,1643831182
Ochakiv,46.6128,31.5498,32.18,97,100,5.14,UA,1643831182
Boende,-0.2167,20.8667,79.21,41,100,1.41,CD,1643831183
Klaksvík,62.2266,-6.589,38.32,82,100,7.67,FO,1643830887
Santiago de Compostela,42.8805,-8.5457,53.15,54,0,1.14,ES,1643831183
Clyde River,70.4692,-68.5914,-19.97,76,100,8.05,CA,1643831184
Saint George,37.1041,-113.5841,42.64,25,75,1.99,US,1643831138
Muriwai Beach,-36.8167,174.45,72.79,83,99,10.36,NZ,1643831184
Viedma,-40.8135,-62.9967,84.47,22,32,13.29,AR,1643831184
Memmingen,47.9837,10.1853,43.05,87,100,8.05,DE,1643831185
Trelew,-43.249,-65.3051,88.48,18,100,18.99,AR,1643831185
Lunglei,22.8833,92.7333,46.58,67,0,3.69,IN,1643831185
Port Lincoln,-34.7333,135.8667,61.47,76,31,12.73,AU,1643831186
Bengkulu,-3.8004,102.2655,75.9,90,99,4.27,ID,1643831163
Fortuna,40.5982,-124.1573,53.92,58,0,5.01,US,1643831101
Pisco,-13.7,-76.2167,77.05,61,0,9.22,PE,1643831082
Chernihiv,51.0,32.0,26.4,97,100,9.28,UA,1643831186
Lorengau,-2.0226,147.2712,79.72,80,100,11.86,PG,1643831187
Flagstaff,35.1981,-111.6513,38.68,33,0,5.01,US,1643831187
Luorong,24.4058,109.6086,40.95,85,99,8.28,CN,1643831187
Pundaguitan,6.3711,126.1689,76.51,86,100,15.12,PH,1643831188
Henties Bay,-22.116,14.2845,69.85,79,86,6.17,NA,1643831188
Sept-Îles,50.2001,-66.3821,26.06,90,75,1.99,CA,1643831002
Macon,39.8667,-88.9668,23.31,100,100,20.71,US,1643831189
Kushima,31.4583,131.2333,41.65,87,100,7.78,JP,1643831189
Lavaca,28.615,-96.6261,77.31,85,75,13.8,US,1643831189
Sychëvka,55.8252,34.2736,19.83,96,99,6.2,RU,1643831190
Port Elizabeth,-33.918,25.5701,73.09,100,75,13.8,ZA,1643831190
Kudymkar,59.0173,54.656,22.39,92,100,8.79,RU,1643831190
Kloulklubed,7.0419,134.2556,79.3,78,100,20.02,PW,1643831191
Honningsvåg,70.9821,25.9704,22.75,86,75,4.61,NO,1643831191
Oddur,4.1213,43.8894,80.4,37,100,11.45,SO,1643831191
Tiksi,71.6872,128.8694,-5.08,99,100,6.42,RU,1643831192
Kyrenia,35.3417,33.3167,61.29,69,100,11.54,CY,1643831192
Hoa Binh,20.8133,105.3383,53.49,73,100,2.13,VN,1643831192
Ţahţā,26.7693,31.5021,59.49,33,100,2.66,EG,1643831099
Wenatchee,47.4235,-120.3103,32.83,64,75,4.61,US,1643830911
Dongying,37.4564,118.4856,27.9,49,0,3.67,CN,1643831193
Tadine,-21.55,167.8833,79.03,84,100,9.15,NC,1643831193
Ilulissat,69.2167,-51.1,1.42,71,20,27.63,GL,1643831193
Xining,36.6167,101.7667,12.72,66,64,2.95,CN,1643831194
Tulagi,-9.0996,160.1476,81.88,78,100,11.63,SB,1643831194
Fairbanks,64.8378,-147.7164,-19.01,73,0,0.0,US,1643831194
São Filipe,14.8961,-24.4956,75.38,66,6,18.86,CV,1643831195
Trat,12.5,102.5,83.98,89,5,1.43,TH,1643831195
Los Llanos de Aridane,28.6585,-17.9182,64.15,78,0,11.99,ES,1643831196
Bonavista,48.6499,-53.1147,29.12,69,15,15.99,CA,1643831196
Nālūt,30.3333,10.85,46.6,48,0,10.18,LY,1643831196
Yar-Sale,66.8333,70.8333,-5.15,93,100,12.15,RU,1643831197
Khandyga,62.6667,135.6,-39.73,100,99,0.51,RU,1643831197
Lodwar,3.1191,35.5973,88.0,36,99,13.58,KE,1643831197
Andenes,69.3143,16.1194,22.98,63,20,12.66,NO,1643831198
Moindou,-21.6924,165.677,69.75,79,97,1.86,NC,1643831198
Benguela,-12.5763,13.4055,75.24,72,48,6.06,AO,1643831198
Honiara,-9.4333,159.95,78.42,88,100,5.14,SB,1643831109
Jojoima,7.8792,-10.7878,77.95,24,12,3.15,SL,1643831199
Rosario,-32.9468,-60.6393,93.58,20,100,6.6,AR,1643831199
Arrondissement de Dole,47.0833,5.5,47.5,93,75,2.3,FR,1643831199
Yeniseysk,58.4497,92.1703,-0.4,99,93,3.22,RU,1643831200
Fort Saint James,54.4333,-124.25,5.88,94,100,2.98,CA,1643831200
Caravelas,-17.7125,-39.2481,80.82,79,100,7.23,BR,1643831200
Quatre Cocos,-20.2078,57.7625,79.09,94,100,34.18,MU,1643831113
Grand Gaube,-20.0064,57.6608,79.38,89,100,23.0,MU,1643831201
Mossamedes,-15.1961,12.1522,73.83,69,76,11.39,AO,1643831201
Kiunga,-6.1219,141.2906,69.84,93,99,1.03,PG,1643831201
Tiarei,-17.5333,-149.3333,84.22,76,12,19.55,PF,1643831202
Husavik,66.0449,-17.3389,24.71,89,98,5.17,IS,1643831202
Touros,-5.1989,-35.4608,86.9,68,58,13.29,BR,1643831156
Preobrazheniye,42.9019,133.9064,13.1,70,58,10.13,RU,1643831202
Ukiah,39.1502,-123.2078,60.58,51,7,1.79,US,1643831203
Atikokan,48.7555,-91.6216,-4.11,80,100,10.25,CA,1643831203
Asău,46.4333,26.4,31.28,89,93,6.11,RO,1643831154
Bongandanga,1.5,21.05,79.48,29,92,1.28,CD,1643831204
Mangaratiba,-22.9597,-44.0406,79.03,89,98,3.2,BR,1643831204
Ketchikan,55.3422,-131.6461,35.58,86,100,5.75,US,1643831204
Havøysund,70.9963,24.6622,23.23,84,45,9.95,NO,1643831205
Labuhan,-6.8844,112.2051,77.34,87,100,6.2,ID,1643831205
Imbituba,-28.24,-48.6703,85.89,77,1,13.8,BR,1643831205
Mersing,2.4312,103.8405,80.51,78,72,9.22,MY,1643831206
Provideniya,64.3833,-173.3,3.74,67,1,22.95,RU,1643831128
Saldanha,-33.0117,17.9442,68.05,86,100,6.73,ZA,1643831206
Aklavik,68.2191,-135.0107,-25.6,68,40,3.44,CA,1643830929
Khilchipur,24.0333,76.5667,64.09,43,0,7.85,IN,1643831207
Handlová,48.7276,18.7601,38.28,99,92,4.32,SK,1643831207
Ponta Delgada,37.7333,-25.6667,60.49,77,20,5.75,PT,1643831207
Gari,59.4307,62.3497,20.3,91,18,9.51,RU,1643831208
San Cristobal,7.7669,-72.225,82.58,25,3,7.94,VE,1643831176
Belmonte,-15.8631,-38.8828,84.7,73,100,8.39,BR,1643831208
Diamantino,-14.4086,-56.4461,86.16,60,24,2.51,BR,1643831134
Necochea,-38.5473,-58.7368,88.81,40,100,16.51,AR,1643831209
Praia da Vitória,38.7333,-27.0667,61.05,82,20,10.45,PT,1643831209
Halifax,44.6453,-63.5724,35.22,76,75,4.0,CA,1643831145
Safi,32.2994,-9.2372,63.32,58,100,9.78,MA,1643831209
San Policarpo,12.1791,125.5072,79.0,83,71,16.67,PH,1643831210
High Level,58.5169,-117.136,-18.29,76,40,3.44,CA,1643831161
Whitefish,48.4111,-114.3376,9.37,64,100,8.05,US,1643831070
São João da Barra,-21.6403,-41.0511,75.29,85,99,9.15,BR,1643831210
Imeni Morozova,59.9757,31.0376,23.04,100,100,2.37,RU,1643831211
Hammerfest,70.6634,23.6821,24.53,73,55,0.0,NO,1643831211
Chililabombwe,-12.3648,27.8229,63.73,94,100,1.34,ZM,1643831211
Lamar,33.6668,-95.5836,41.25,87,100,18.41,US,1643831212
Santa Fe,-31.6333,-60.7,102.97,28,100,3.0,AR,1643831212
Pulandian,39.3953,121.9669,10.53,75,0,2.91,CN,1643831212
Esperance,-33.8667,121.9,57.04,74,4,10.74,AU,1643831213
Adrar,20.5022,-10.0711,73.62,18,96,10.67,MR,1643831213
Khomutovo,52.4658,104.4025,-8.39,100,93,2.75,RU,1643831213
Saskylakh,71.9167,114.0833,-29.81,100,28,2.8,RU,1643831148
Bereda,43.2686,-7.5406,49.75,99,87,1.77,ES,1643831214
Goderich,43.7501,-81.7165,32.04,93,100,10.36,CA,1643831001
Suntar,62.1444,117.6319,-27.72,99,23,3.56,RU,1643831214
Anadyr,64.75,177.4833,19.9,49,0,33.55,RU,1643831215
Mount Gambier,-37.8333,140.7667,55.31,76,100,8.05,AU,1643831215
Fengzhen,40.4394,113.1536,10.47,56,0,3.22,CN,1643831215
Moroni,-11.7022,43.2551,79.59,79,56,1.88,KM,1643830922
Raja,8.4596,25.678,78.53,21,84,4.34,SS,1643831216
Felanitx,39.4696,3.1483,56.01,84,0,2.62,ES,1643831216
Guangming,45.3333,122.7833,-8.21,87,8,5.14,CN,1643831216
Salalah,17.0151,54.0924,73.49,38,0,2.3,OM,1643831217
Makat,47.6469,53.3463,30.13,92,97,9.89,KZ,1643831217
Aguçadoura,41.4318,-8.7804,58.24,75,98,4.41,PT,1643831217
Souillac,-20.5167,57.5167,79.36,94,75,29.93,MU,1643831218
Hilo,19.7297,-155.09,77.25,68,20,4.61,US,1643831178
Vestmannaeyjar,63.4427,-20.2734,32.16,72,100,9.84,IS,1643831155
Mindelo,16.8901,-24.9804,74.75,69,20,28.77,CV,1643831218
Catherinas Lust,6.4,-57.6,81.39,64,39,10.13,GY,1643831219
Tiznit Province,29.5833,-9.5,68.72,26,97,4.59,MA,1643831219
Tulum,20.2167,-87.4667,82.92,65,25,11.18,MX,1643831219
Cambuí,-22.6122,-46.0575,70.41,98,100,1.34,BR,1643831220
Zuénoula,7.4292,-6.0431,76.69,16,35,2.17,CI,1643831220
Codrington,-38.2667,141.9667,59.25,56,73,16.53,AU,1643831119
Amambai,-23.1042,-55.2258,85.93,51,75,6.98,BR,1643831220
Sinnamary,5.3833,-52.95,80.46,76,37,11.56,GF,1643831221
Apache Junction,33.4151,-111.5496,59.25,20,0,5.99,US,1643831221
Vero Beach,27.6386,-80.3973,79.05,53,0,10.0,US,1643831005
Sitka,57.0531,-135.33,37.29,93,75,6.91,US,1643831097
Challans,46.8436,-1.8749,47.32,88,91,2.19,FR,1643831222
Half Moon Bay,37.4636,-122.4286,62.46,32,0,8.01,US,1643831222
Potiskum,11.7091,11.0694,67.05,13,28,10.09,NG,1643831223
Margate,51.3813,1.3862,48.96,80,100,1.01,GB,1643831223
Hamilton,39.1834,-84.5333,44.64,93,100,1.01,US,1643831114
Mānsa,29.9833,75.3833,57.88,50,100,13.62,IN,1643831223
Tataouine,32.9297,10.4518,56.28,45,61,16.87,TN,1643831224
Meulaboh,4.1363,96.1285,77.32,84,86,4.41,ID,1643831224
Moroto,2.5345,34.6666,73.89,46,100,7.11,UG,1643831224
Helsingborg,56.0467,12.6944,36.84,90,42,11.86,SE,1643831225
Swellendam,-34.0226,20.4417,70.18,80,47,4.23,ZA,1643831086
Kargasok,59.0556,80.8572,14.88,93,94,8.63,RU,1643831225
Beruwala,6.4788,79.9828,77.83,74,40,3.69,LK,1643831225
Cayenne,4.9333,-52.3333,80.1,83,100,5.01,GF,1643831226
Sukhumi,43.0033,41.0153,50.29,66,86,2.28,GE,1643831226
Isiro,2.7739,27.616,70.47,40,98,1.7,CD,1643831226
Posadas,-27.3671,-55.8961,103.98,18,40,11.5,AR,1643831227
Osypenko,46.9136,36.8253,36.84,98,100,11.05,UA,1643831227
Villa Vicente Guerrero,19.1194,-98.1708,68.74,33,0,12.84,MX,1643831228
Inhambane,-23.865,35.3833,77.0,88,20,5.01,MZ,1643831228
Władysławowo,54.7909,18.4009,34.02,68,100,13.2,PL,1643831228
Enshi,30.3,109.4833,36.19,98,100,0.81,CN,1643831229
Auki,-8.7676,160.7034,78.35,87,100,5.7,SB,1643831229
Vianópolis,-16.7419,-48.5164,76.46,71,97,4.45,BR,1643831230
Codajás,-3.8367,-62.0569,79.97,91,100,2.71,BR,1643831230
Erenhot,43.6475,111.9767,-2.69,94,7,4.76,CN,1643831230
Poli,-3.3333,36.8,62.87,85,95,4.12,TZ,1643831231
Houma,29.5958,-90.7195,75.99,65,100,11.03,US,1643831231
Lata,40.1629,-8.3327,53.08,69,91,0.27,PT,1643831190
Takaungu,-3.6837,39.8566,81.09,89,100,9.84,KE,1643831231
Genhe,50.7833,121.5167,-21.73,100,60,1.83,CN,1643831232
Vytegra,61.0064,36.4481,14.04,97,100,2.55,RU,1643831232
Anchorage,61.2181,-149.9003,20.86,89,0,0.0,US,1643831064
Naze,28.3667,129.4833,57.49,91,100,13.0,JP,1643831232
Lagos,6.5833,3.75,80.92,80,30,6.13,NG,1643831176
Ternate,0.8,127.4,78.21,82,100,6.02,ID,1643831233
Krasnyy Oktyabr',56.1167,38.8833,22.03,96,100,3.38,RU,1643831233
Shahrud,36.4182,54.9763,35.55,70,0,3.0,IR,1643831234
Saint-Joseph,-21.3667,55.6167,80.96,90,100,30.53,RE,1643831234
Isangel,-19.55,169.2667,77.11,100,75,0.0,VU,1643831234
Bac Lieu,9.285,105.7244,76.84,86,92,13.06,VN,1643831234
Grand-Santi,4.25,-54.3833,77.95,95,56,3.83,GF,1643831235
Ca Mau,9.1769,105.15,75.43,88,93,6.33,VN,1643831235
Petropavlovsk-Kamchatskiy,53.0452,158.6483,23.59,100,75,2.24,RU,1643831236
Bethanien,-26.502,17.1583,76.37,46,7,12.41,NA,1643831236
Prado,-17.3411,-39.2208,81.37,77,91,8.66,BR,1643831184
Sørland,67.667,12.6934,28.26,55,100,19.84,NO,1643831236
At-Bashi,41.1702,75.8106,5.05,89,100,0.43,KG,1643831237
Haines Junction,60.7522,-137.5108,-7.65,71,99,1.14,CA,1643831181
Beihai,21.4833,109.1,50.36,90,100,20.76,CN,1643831237
Atambua,-9.1061,124.8925,73.09,89,87,2.21,ID,1643831238
Sandnessjøen,66.0217,12.6316,22.98,53,0,5.01,NO,1643831238
Magaria,12.9983,8.9099,67.23,11,78,7.92,NE,1643831238
Tilichiki,60.4667,166.1,4.51,84,100,11.36,RU,1643831239
Roebourne,-20.7833,117.1333,82.49,69,100,7.02,AU,1643831239
Ried,48.477,11.2606,40.68,100,90,8.77,DE,1643831239
College,64.8569,-147.8028,-18.74,73,0,0.0,US,1643831202
Sobolevo,54.4299,31.8996,24.12,96,100,9.15,RU,1643831240
Zhezkazgan,47.8043,67.7144,2.53,89,17,6.22,KZ,1643831240
Itamaraju,-17.0392,-39.5311,81.64,74,99,7.05,BR,1643831240
Sechura,-5.5569,-80.8222,82.98,51,10,16.78,PE,1643831241
Mwense,-10.3845,28.698,67.44,95,100,1.61,ZM,1643831241
Ankpa,7.3706,7.6253,76.96,17,5,2.13,NG,1643831242
Atar,20.5169,-13.0499,78.22,18,0,9.6,MR,1643831242
Nouadhibou,20.931,-17.0347,78.78,44,2,9.22,MR,1643831242
Evensk,61.95,159.2333,21.52,40,100,26.93,RU,1643831242
Sibolga,1.7427,98.7792,77.09,80,99,2.73,ID,1643831243
Vila Franca do Campo,37.7167,-25.4333,60.19,80,20,9.17,PT,1643831243
Iqaluit,63.7506,-68.5145,8.33,78,100,15.99,CA,1643831202
Pristina,42.6727,21.1669,31.37,80,75,4.61,XK,1643831186
Kumul,42.8,93.45,22.19,33,1,0.74,CN,1643831244
Kupino,54.3663,77.2981,-1.61,100,100,6.31,RU,1643831244
Yumen,40.2833,97.2,22.82,33,100,9.1,CN,1643831244
Virginia Beach,36.8529,-75.978,55.44,88,100,1.99,US,1643830677
Kavaratti,10.5669,72.642,79.88,71,7,10.96,IN,1643831245
Umm Kaddadah,13.6017,26.6876,72.27,18,18,6.98,SD,1643831245
Aleksandrov Gay,50.147,48.5704,31.48,91,100,15.68,RU,1643831246
Biltine,14.5333,20.9167,66.74,13,2,7.43,TD,1643831246
Conceição da Barra,-18.5933,-39.7322,82.09,71,85,6.64,BR,1643831246
Jambi City,-1.6,103.6167,73.4,93,100,2.66,ID,1643831247
Roald,62.5833,6.1333,35.74,64,75,4.61,NO,1643831247
Ayorou,14.7308,0.9174,73.11,11,0,8.66,NE,1643831247
Sotouboua,8.5667,0.9833,78.19,14,72,2.93,TG,1643831248
Lady Lake,28.9175,-81.9229,80.96,45,0,1.99,US,1643831105
Xichang,27.8964,102.2634,31.51,94,94,3.15,CN,1643831248
Kapit,2.0167,112.9333,71.74,99,97,1.61,MY,1643831249
Port Macquarie,-31.4333,152.9167,69.89,100,100,5.75,AU,1643831249
Kaduqli,11.0167,29.7167,77.54,19,5,6.11,SD,1643831249
Luocheng,29.3848,104.0286,38.66,90,16,1.9,CN,1643831250
Tabou,4.423,-7.3528,79.57,79,100,7.67,CI,1643831250
Elko,41.0002,-115.5012,25.74,44,5,8.99,US,1643831114
Bousso,10.4795,16.7117,74.7,15,12,7.29,TD,1643831250
Olenino,56.2092,33.4889,16.83,97,100,3.51,RU,1643831251
Teknāf,20.8624,92.3058,61.41,78,0,4.52,BD,1643831251
Den Chai,17.9837,100.0522,72.14,57,71,1.16,TH,1643831251
Nyrob,60.733,56.7202,23.41,95,100,7.27,RU,1643831252
Peskovka,59.0448,52.3606,21.07,94,100,8.3,RU,1643831252
Novo Aripuanã,-5.1206,-60.3797,81.3,85,96,1.77,BR,1643831252
Griffith,41.5284,-87.4237,27.21,91,100,3.0,US,1643831253
Antalaha,-14.9003,50.2788,75.72,81,100,5.21,MG,1643831253
Zonguldak,41.25,31.8333,41.29,88,100,5.93,TR,1643831253
Monrovia,6.3005,-10.7969,80.37,79,10,8.95,LR,1643831254
Koygorodok,60.445,50.9968,21.85,93,100,8.01,RU,1643831254
Luzhou,28.8724,105.4405,40.46,90,55,2.55,CN,1643831254
Bambous Virieux,-20.3428,57.7575,79.21,94,75,29.93,MU,1643831255
Kut Chap,17.4257,102.5669,70.72,74,7,4.45,TH,1643831255
Launceston,-41.45,147.1667,49.6,75,4,1.99,AU,1643831255
Beringovskiy,63.05,179.3167,-0.18,83,65,19.55,RU,1643831256
Grindavik,63.8424,-22.4338,28.87,54,75,6.91,IS,1643831256
Zaplavnoye,48.7048,45.0229,35.46,93,100,12.91,RU,1643831256
Kuantan,3.8077,103.326,77.11,88,40,4.61,MY,1643831257
Krasnoarmiys'k,48.282,37.1758,33.39,100,100,4.47,UA,1643831257
Bima,-8.4667,118.7167,74.75,93,98,2.46,ID,1643831257
‘Āhuimanu,21.4447,-157.8378,76.78,72,0,1.99,US,1643831258
Akdepe,42.0551,59.3788,33.89,81,1,9.66,TM,1643831258
Cairns,-16.9167,145.7667,80.55,88,100,3.44,AU,1643831258
Vargem Grande do Sul,-21.8322,-46.8936,77.45,97,100,1.77,BR,1643831259
Batemans Bay,-35.7167,150.1833,57.9,74,22,7.45,AU,1643831259
Acaraú,-2.8856,-40.12,82.8,69,51,13.67,BR,1643831186
Calabar,4.9517,8.322,80.26,69,0,5.59,NG,1643831259
Muhos,64.808,25.9931,2.98,98,100,3.04,FI,1643831260
Maltahöhe,-24.8333,16.9833,74.39,42,69,17.0,NA,1643831260
Svobodnyy,51.4,128.1333,-11.22,91,15,8.63,RU,1643831260
Sakakah,29.9697,40.2064,54.97,37,8,13.38,SA,1643831150
Ust-Kuyga,70.0167,135.6,-21.93,96,91,8.34,RU,1643831261
Constantine,36.365,6.6147,47.61,61,0,9.22,DZ,1643831261
Ekibastuz,51.6667,75.3667,9.09,91,100,5.06,KZ,1643831262
La Ronge,55.1001,-105.2842,-18.15,43,0,5.75,CA,1643831262
Sambava,-14.2667,50.1667,77.79,80,100,4.38,MG,1643831262
Dandong,40.1292,124.3947,10.8,82,1,3.15,CN,1643831262
Zaraza,9.3503,-65.3245,89.49,43,100,7.87,VE,1643831263
Harper,4.375,-7.7169,79.36,78,82,8.19,LR,1643831263
Gorlice,49.6556,21.1604,35.26,97,100,12.19,PL,1643831263
Maku,39.2911,44.4521,32.61,64,0,0.0,IR,1643831264
Bocaiúva,-17.1078,-43.815,82.11,75,100,2.51,BR,1643831264
Midland,31.9974,-102.0779,36.27,85,100,17.27,US,1643831264
Ust-Tsilma,65.441,52.1498,14.86,98,100,2.17,RU,1643831265
Wharton,29.3116,-96.1027,75.83,83,100,8.05,US,1643831265
Bathsheba,13.2167,-59.5167,84.81,65,40,17.27,BB,1643831265
Mala Vyska,48.6431,31.6366,30.43,91,100,3.98,UA,1643831266
Tulun,54.5611,100.5792,-16.42,100,96,2.24,RU,1643831266
Amurzet,47.6967,131.0981,-8.95,94,21,6.8,RU,1643831266
Porto-Novo,6.4965,2.6036,82.22,72,1,6.42,BJ,1643831267
Coro,11.4045,-69.6734,82.56,67,47,21.21,VE,1643831267
Boa Esperança,-21.09,-45.5658,72.01,88,98,4.47,BR,1643831267
Ajdabiya,30.7554,20.2263,53.62,68,13,14.67,LY,1643831268
Mumbai,19.0144,72.8479,71.58,94,5,0.0,IN,1643831070
Arlit,18.7369,7.3853,65.79,14,0,12.5,NE,1643831268
Sangīn,32.0728,64.8359,45.99,40,0,12.66,AF,1643831269
Maputo,-25.9653,32.5892,80.28,83,20,4.0,MZ,1643831269
Derzhavīnsk,51.1,66.3167,12.51,89,96,5.84,KZ,1643831269
Australind,-33.2667,115.7167,64.06,38,91,12.12,AU,1643831270
Tingo María,-9.2895,-76.0088,71.91,78,100,6.91,PE,1643831270
Conceição do Araguaia,-8.2578,-49.2647,85.3,67,16,5.64,BR,1643831270
Saint-Augustin,51.226,-58.6502,24.49,81,100,25.01,CA,1643831271
Camocim,-2.9022,-40.8411,81.84,73,69,13.09,BR,1643831271
Fare,-16.7,-151.0167,80.82,70,17,16.71,PF,1643831271
Araouane,18.9048,-3.5265,69.53,11,96,11.32,ML,1643831271
Kailua,21.4022,-157.7394,77.07,72,0,8.05,US,1643831272
Stornoway,58.2093,-6.3865,48.92,97,100,7.0,GB,1643831272
Baruun-Urt,46.6806,113.2792,-10.77,92,56,3.42,MN,1643831272
Uyuni,-20.4597,-66.825,56.37,52,85,1.97,BO,1643831273
Camacha,33.0833,-16.3333,63.54,100,75,9.22,PT,1643831273
Puerto Madryn,-42.7692,-65.0385,84.42,25,79,16.17,AR,1643831273
Namatanai,-3.6667,152.4333,77.79,84,100,6.82,PG,1643831274
Āmli,20.2833,73.0167,66.45,62,5,3.31,IN,1643831274
Lovozero,68.005,35.0117,10.98,97,100,2.08,RU,1643831274
Al Bardīyah,31.7561,25.0865,54.9,63,100,11.61,LY,1643831275
Marrakesh,31.6315,-8.0083,69.87,24,91,5.75,MA,1643831275
San Fernando del Valle de Catamarca,-28.4696,-65.7852,97.05,29,4,4.0,AR,1643831275
Kinna,57.5073,12.6946,32.34,96,10,3.15,SE,1643831276
Along,28.1667,94.7667,48.61,89,31,2.15,IN,1643831276
Kassala,15.451,36.4,79.88,36,98,7.2,SD,1643831276
Emerald,-23.5333,148.1667,75.34,100,75,6.91,AU,1643831277
Kolokani,13.5728,-8.0339,73.96,13,0,9.04,ML,1643831277
Hobbs,32.7026,-103.136,32.09,69,100,16.11,US,1643831059
Dorado,18.4588,-66.2677,85.71,78,54,14.88,PR,1643831277
Korsakov,46.6328,142.7813,-11.36,90,23,8.66,RU,1643831278
Ust'-Ishim,57.6935,71.1665,21.94,94,100,8.86,RU,1643831278
Khanbari,27.3747,87.2039,47.89,81,74,2.39,NP,1643831278
Kibala,9.1104,18.3463,78.46,16,18,5.59,TD,1643831279
Bograd,54.2344,90.8328,-20.45,97,88,2.62,RU,1643831279
Darnah,32.767,22.6367,51.6,76,52,15.37,LY,1643831280
Guiratinga,-16.3494,-53.7583,79.95,80,47,6.87,BR,1643831280
Tagusao,9.1924,117.8141,77.02,86,8,3.13,PH,1643831280
Santa Isabel Rio Negro,-0.4139,-65.0192,87.04,62,99,5.39,BR,1643831281
Soyo,-6.1349,12.3689,78.66,75,59,10.8,AO,1643831281
San Patricio,28.017,-97.5169,80.69,67,100,15.79,US,1643831281
Suileng,47.25,127.0833,-20.99,100,63,3.11,CN,1643831282
Faanui,-16.4833,-151.75,80.71,75,18,16.98,PF,1643831282
Khasan,42.4308,130.6434,15.89,55,2,17.58,RU,1643831283
Hagi,34.4,131.4167,34.86,57,100,12.1,JP,1643831283
Khovu-Aksy,51.1333,93.6,-8.23,87,100,1.95,RU,1643831283
Oranjestad,12.524,-70.027,84.15,65,20,19.57,AW,1643831284
North Bend,43.4065,-124.2243,49.24,91,100,3.44,US,1643831284
San Quintín,30.4833,-115.95,62.17,51,0,8.41,MX,1643831284
Bhagwantnagar,26.2333,80.75,51.85,56,1,8.08,IN,1643831285
Chegdomyn,51.1167,133.0167,-21.59,100,100,1.32,RU,1643831285
Samarai,-10.6167,150.6667,79.45,81,95,7.14,PG,1643831285
Pozo Colorado,-23.4923,-58.7972,103.62,20,91,7.0,PY,1643831286
Omboué,-1.5746,9.2618,78.64,84,79,4.74,GA,1643831286
Luganville,-15.5333,167.1667,80.19,85,52,3.62,VU,1643831286
Kyrksæterøra,63.2906,9.0891,32.65,78,100,11.1,NO,1643831287
Portland,45.5234,-122.6762,44.53,93,100,1.01,US,1643830985
Ipueiras,-7.0333,-40.45,89.44,27,38,8.46,BR,1643831287
Pelym,61.0108,61.9978,14.95,99,96,3.83,RU,1643831288
Ajuchitlán,20.7167,-100.0167,75.16,23,0,13.33,MX,1643831288
Union,40.6334,-74.2663,46.9,85,100,0.0,US,1643831288
Maningrida,-12.0667,134.2667,77.34,88,99,8.9,AU,1643831289
Siparia,10.1333,-61.5,87.66,87,10,4.0,TT,1643831289
Svoge,42.9667,23.35,33.04,88,100,3.22,BG,1643831289
Riyadh,24.6877,46.7219,55.54,35,0,5.66,SA,1643831124
Neuquén,-38.9516,-68.0591,93.09,21,40,9.22,AR,1643831290
Kharhiāl,20.2833,82.7667,64.65,37,3,1.83,IN,1643831290
