City,Lat,Lon,Temp,Humidity,Cloudiness,Wind Speed,Country,Date
Arraial do Cabo,-22.9661,-42.0278,82.26,74,40,13.8,BR,1645556611
Pudozh,61.8099,36.5345,22.75,96,92,4.7,RU,1645556612
Torbay,47.6666,-52.7314,30.88,45,100,4.0,CA,1645556612
Road Town,18.4167,-64.6167,82.44,69,40,8.05,VG,1645556419
Avarua,-21.2078,-159.775,80.65,83,40,10.36,CK,1645556612
Saskylakh,71.9167,114.0833,-1.1,95,100,5.7,RU,1645556613
Garissa,-0.4536,39.6401,89.89,33,100,12.12,KE,1645556613
Eureka,40.8021,-124.1637,46.2,91,98,4.0,US,1645556472
Avera,33.194,-82.5271,80.26,53,5,12.68,US,1645556614
São Filipe,14.8961,-24.4956,69.19,77,16,8.52,CV,1645556614
Margate,51.3813,1.3862,49.3,64,16,5.99,GB,1645556614
Rikitea,-23.1203,-134.9692,77.81,74,100,11.79,PF,1645556615
Vila Franca do Campo,37.7167,-25.4333,63.19,74,100,8.9,PT,1645556615
Huanuni,-18.2667,-66.85,50.54,54,100,10.13,BO,1645556616
Condega,13.365,-86.3985,82.53,46,70,10.63,NI,1645556616
Tahoua,14.8888,5.2692,76.53,6,29,10.67,NE,1645556616
Castro,-24.7911,-50.0119,83.41,51,73,5.41,BR,1645556617
Japura,-0.3167,102.35,73.76,96,72,1.9,ID,1645556617
Saldanha,-33.0117,17.9442,64.04,88,0,14.65,ZA,1645556618
Kaeo,-35.1,173.7833,63.32,96,29,6.82,NZ,1645556618
Djibouti,11.5,42.5,74.62,61,5,14.16,DJ,1645556618
Yellowknife,62.456,-114.3525,-14.71,84,14,5.21,CA,1645556619
Hilo,19.7297,-155.09,74.8,92,100,3.0,US,1645556535
Hithadhoo,-0.6,73.0833,82.06,70,10,7.34,MV,1645556619
Bambous Virieux,-20.3428,57.7575,80.22,89,100,11.48,MU,1645556619
Ponta do Sol,32.6667,-17.1,66.83,75,72,13.29,PT,1645556620
Qaanaaq,77.484,-69.3632,-11.16,52,4,3.74,GL,1645556620
Lebu,-37.6167,-73.65,65.97,62,0,15.08,CL,1645556620
Cabo San Lucas,22.8909,-109.9124,78.51,68,1,3.0,MX,1645556345
Impfondo,1.6381,18.0667,83.61,28,100,2.42,CG,1645556621
Port-Gentil,-0.7193,8.7815,81.45,77,100,8.63,GA,1645556621
Waingapu,-9.6567,120.2641,75.67,86,100,5.26,ID,1645556622
Puerto Ayora,-0.7393,-90.3518,85.96,71,96,10.54,EC,1645556622
Kumul,42.8,93.45,30.7,33,0,2.35,CN,1645556622
Norman Wells,65.282,-126.8329,5.94,74,100,8.21,CA,1645556623
Punta Arenas,-53.15,-70.9167,63.14,64,99,11.43,CL,1645556504
Alofi,-19.0595,-169.9187,79.7,79,100,15.52,NU,1645556623
Maiduguri,11.8464,13.1603,74.34,13,2,8.9,NG,1645556421
Chui,-33.6971,-53.4616,79.5,51,6,12.71,UY,1645556624
Kavieng,-2.5744,150.7967,80.24,79,85,6.89,PG,1645556624
Barrow,71.2906,-156.7887,21.22,86,100,14.97,US,1645556624
Provideniya,64.3833,-173.3,20.34,96,100,1.57,RU,1645556625
Tasiilaq,65.6145,-37.6368,26.76,58,100,20.18,GL,1645556591
Yar-Sale,66.8333,70.8333,6.37,95,100,7.45,RU,1645556625
Sørland,67.667,12.6934,30.06,62,100,19.06,NO,1645556626
Senanga,-16.1167,23.2667,67.82,91,18,3.29,ZM,1645556626
Dikson,73.5069,80.5464,1.51,94,100,17.65,RU,1645556626
Edéa,3.8,10.1333,80.8,77,100,4.07,CM,1645556627
New Norfolk,-42.7826,147.0587,55.71,72,78,2.28,AU,1645556627
Kapaa,22.0752,-159.319,75.52,77,100,11.5,US,1645556627
Cape Town,-33.9258,18.4232,69.28,68,0,1.99,ZA,1645556407
Hermanus,-34.4187,19.2345,66.9,77,0,3.76,ZA,1645556628
Pacific Grove,36.6177,-121.9166,52.41,67,40,11.99,US,1645556628
Himatnagar,23.6,72.95,77.81,51,0,6.17,IN,1645556628
Beringovskiy,63.05,179.3167,-15.7,99,31,3.58,RU,1645556629
Bluff,-46.6,168.3333,45.81,64,82,4.79,NZ,1645556629
Toyooka,35.5333,134.8333,26.56,93,84,5.44,JP,1645556604
Kamenka,51.3223,42.7678,35.74,100,100,12.33,RU,1645556630
George Town,5.4112,100.3354,78.73,83,20,2.3,MY,1645556492
Butaritari,3.0707,172.7902,80.87,82,100,19.33,KI,1645556630
Tuktoyaktuk,69.4541,-133.0374,10.4,79,100,13.8,CA,1645556631
Mar del Plata,-38.0023,-57.5575,71.62,87,75,14.97,AR,1645556344
Cidreira,-30.1811,-50.2056,77.95,74,12,13.29,BR,1645556631
Portland,45.5234,-122.6762,38.1,51,40,23.02,US,1645555807
Emerald,-23.5333,148.1667,75.34,71,72,3.65,AU,1645556632
La Ronge,55.1001,-105.2842,-4.16,85,100,7.7,CA,1645556599
Mataura,-46.1927,168.8643,45.48,94,100,2.15,NZ,1645556632
Kapoeta,4.7717,33.5903,86.65,20,88,2.3,SS,1645556633
Bubaque,11.2833,-15.8333,76.6,70,3,14.99,GW,1645556633
Santa María del Oro,25.9333,-105.3667,76.26,17,40,20.8,MX,1645556634
Mathbaria,22.2876,89.9593,67.32,87,0,3.71,BD,1645556634
Zhanakorgan,43.9098,67.2495,40.33,65,99,3.83,KZ,1645556634
Atuona,-9.8,-139.0333,78.62,74,4,18.95,PF,1645556635
Qasigiannguit,68.8193,-51.1922,-0.15,98,100,9.98,GL,1645556635
Marang,5.2056,103.2059,76.96,88,100,6.76,MY,1645556635
Yayva,59.3303,57.2641,30.18,96,100,11.21,RU,1645556636
Hobart,-42.8794,147.3294,56.05,82,54,0.0,AU,1645556627
Fortuna,40.5982,-124.1573,45.93,84,75,10.36,US,1645556636
Lamar,33.6668,-95.5836,42.46,81,0,20.71,US,1645556637
Ucluelet,48.9329,-125.5528,38.08,39,0,6.26,CA,1645556481
Korla,41.7597,86.1469,30.07,46,0,0.98,CN,1645556429
Rembang,-6.707,111.3498,77.04,86,100,4.85,ID,1645556637
Neuquén,-38.9516,-68.0591,64.29,63,75,10.36,AR,1645556638
Mendi,-6.1761,143.6513,56.17,98,100,0.34,PG,1645556638
Russell,32.3502,-85.1999,79.12,72,61,11.39,US,1645556453
‘Ewa Beach,21.3156,-158.0072,78.01,77,40,5.75,US,1645556425
Turukhansk,65.8167,87.9833,20.39,95,100,13.69,RU,1645556639
Chokurdakh,70.6333,147.9167,-26.19,96,99,9.46,RU,1645556639
Carnarvon,-24.8667,113.6333,78.87,78,0,19.57,AU,1645556640
San Patricio,28.017,-97.5169,91.81,39,0,7.43,US,1645556640
Tura,25.5198,90.2201,60.46,48,23,4.65,IN,1645556640
Bredasdorp,-34.5322,20.0403,62.28,70,0,5.08,ZA,1645556641
Touros,-5.1989,-35.4608,88.7,60,4,13.29,BR,1645556343
Port Alfred,-33.5906,26.891,69.78,79,0,10.92,ZA,1645556641
Mogocha,53.7333,119.7667,-8.86,100,21,3.2,RU,1645556642
Sambava,-14.2667,50.1667,78.96,84,100,4.79,MG,1645556642
Codrington,-38.2667,141.9667,51.71,87,0,2.91,AU,1645556643
Mae Sai,20.4335,99.8762,66.43,97,43,1.88,TH,1645556643
Asău,46.4333,26.4,43.75,87,100,2.39,RO,1645556643
Broome,42.2506,-75.833,54.14,74,100,9.22,US,1645556644
Carutapera,-1.195,-46.02,81.54,81,36,9.46,BR,1645556644
Pisco,-13.7,-76.2167,79.02,69,40,5.75,PE,1645556645
Xichang,27.8964,102.2634,30.29,90,55,2.28,CN,1645556645
Xingtai,37.0631,114.4942,28.51,34,0,3.44,CN,1645556645
Nakatsugawa,35.4833,137.5,28.24,93,54,2.17,JP,1645556646
Mandalī,33.7499,45.5541,61.14,51,54,7.9,IQ,1645556646
Kedrovyy,56.1667,91.8167,14.41,92,100,4.07,RU,1645556646
Thohoyandou,-22.9456,30.485,73.72,62,89,5.37,ZA,1645556647
Yei,4.095,30.6779,76.21,25,80,1.83,SS,1645556647
Codajás,-3.8367,-62.0569,84.22,68,88,4.76,BR,1645556647
Fondi,41.3541,13.4313,51.82,52,5,7.49,IT,1645556647
Angoche,-16.2325,39.9086,79.56,78,100,8.46,MZ,1645556648
Menongue,-14.6585,17.691,65.08,94,100,2.39,AO,1645556648
Bethel,41.3712,-73.414,52.38,92,100,5.75,US,1645556649
Ushuaia,-54.8,-68.3,51.42,84,99,2.68,AR,1645556649
Lüderitz,-26.6481,15.1594,69.98,65,0,15.32,NA,1645556649
Saint Paul Harbor,57.79,-152.4072,38.71,87,0,3.44,US,1645556650
Zakupne,49.1194,26.3376,40.57,62,85,11.95,UA,1645556650
Caravelas,-17.7125,-39.2481,83.75,63,92,8.19,BR,1645556650
Gornozavodsk,58.3758,58.3211,27.7,96,100,9.57,RU,1645556651
Kasongo,-4.45,26.6667,69.96,96,100,2.28,CD,1645556651
Mayo,38.8876,-76.5119,66.34,78,100,12.66,US,1645556651
Salalah,17.0151,54.0924,82.49,18,0,8.05,OM,1645556652
Saint-Philippe,-21.3585,55.7679,80.19,85,100,20.36,RE,1645556652
Longyearbyen,78.2186,15.6401,3.04,78,100,9.22,SJ,1645556589
Bilma,18.6853,12.9164,75.27,7,5,6.87,NE,1645556653
Talnakh,69.4865,88.3972,15.01,95,100,10.94,RU,1645556653
Strezhevoy,60.7333,77.5889,24.78,98,100,3.71,RU,1645556653
Hasaki,35.7333,140.8333,32.4,40,96,8.52,JP,1645556621
Afuá,-0.1567,-50.3867,82.4,78,76,7.92,BR,1645556654
Yangi Marg`ilon,40.4272,71.7189,45.82,33,100,2.46,UZ,1645556654
Kaabong,3.4836,34.1492,72.27,31,97,6.82,UG,1645556655
Ankazoabo,-22.2833,44.5167,77.76,62,100,9.42,MG,1645556655
Jamestown,42.097,-79.2353,50.29,69,100,12.66,US,1645556401
Shihezi,44.3,86.0333,4.55,94,31,5.44,CN,1645556656
Krasne,49.9145,24.6134,38.55,86,43,13.15,UA,1645556656
Itarema,-2.9248,-39.9167,84.92,64,94,16.22,BR,1645556656
Dwārka,22.2394,68.9678,73.04,81,0,7.2,IN,1645556657
Oodweyne,9.4092,45.064,67.41,37,53,10.11,SO,1645556657
Itatiaia,-22.4961,-44.5633,82.67,77,52,4.14,BR,1645556657
Palmer,42.1584,-72.3287,49.46,73,100,1.99,US,1645556658
Elko,41.0002,-115.5012,28.06,86,100,5.99,US,1645556658
Itoman,26.1247,127.6694,59.77,96,75,18.41,JP,1645556658
Saint-Augustin,51.226,-58.6502,-1.46,68,100,10.4,CA,1645556659
Lubango,-14.9172,13.4925,62.37,96,100,4.94,AO,1645556419
Tshikapa,-6.4167,20.8,72.84,90,100,1.86,CD,1645556659
East London,-33.0153,27.9116,72.82,80,100,9.42,ZA,1645556427
Lavrentiya,65.5833,-171.0,19.44,96,100,3.58,RU,1645556660
Leningradskiy,69.3833,178.4167,-19.57,97,100,13.38,RU,1645556660
Mahébourg,-20.4081,57.7,80.26,89,100,12.08,MU,1645556661
Albany,42.6001,-73.9662,52.3,81,100,3.0,US,1645556118
Upernavik,72.7868,-56.1549,-17.37,97,100,8.01,GL,1645556661
Kemijärvi,66.7131,27.4306,-0.33,100,82,1.34,FI,1645556661
Beidao,34.5686,105.8933,32.81,77,100,3.2,CN,1645556662
Lensk,60.7253,114.9278,17.02,93,100,7.54,RU,1645556662
Clyde River,70.4692,-68.5914,-3.77,71,0,21.85,CA,1645556662
Yulara,-25.2406,130.9889,71.44,40,0,9.22,AU,1645556663
Bandarbeyla,9.4942,50.8122,77.47,77,61,20.29,SO,1645556663
Manado,1.487,124.8455,72.37,94,40,1.14,ID,1645556406
Makubetsu,45.3714,141.8211,23.83,57,100,19.22,JP,1645556663
Esim,4.8699,-2.2405,80.87,83,93,9.17,GH,1645556664
Busselton,-33.65,115.3333,65.08,76,83,15.61,AU,1645556664
Lompoc,34.6391,-120.4579,56.41,76,100,12.66,US,1645556665
Vardø,70.3705,31.1107,16.0,68,81,11.34,NO,1645556665
Shimoda,34.6667,138.95,33.1,63,0,18.7,JP,1645556665
Balkhash,46.844,74.9804,15.37,84,100,5.61,KZ,1645556666
Racale,39.9631,18.0938,51.84,72,77,22.86,IT,1645556666
Biltine,14.5333,20.9167,73.49,6,87,6.46,TD,1645556667
Ashington,50.9331,-0.3909,50.18,66,0,8.05,GB,1645556667
Naryan-Mar,67.6713,53.087,9.84,97,100,6.51,RU,1645556668
Te Anau,-45.4167,167.7167,49.55,84,100,2.37,NZ,1645556668
Felanitx,39.4696,3.1483,54.12,76,0,3.47,ES,1645556668
Milford,41.2223,-73.0565,55.58,87,100,6.91,US,1645556669
Ambilobe,-13.2,49.05,76.12,94,100,7.65,MG,1645556669
Chicama,-7.8447,-79.1469,72.14,51,18,11.77,PE,1645556669
Tarko-Sale,64.9225,77.785,18.66,95,98,11.14,RU,1645556670
Port Lincoln,-34.7333,135.8667,62.04,80,0,9.57,AU,1645556596
Båtsfjord,70.6345,29.7185,22.93,76,88,8.43,NO,1645556589
Umluj,25.0213,37.2685,71.17,60,0,5.91,SA,1645556670
Gillette,44.2911,-105.5022,-3.77,76,100,8.05,US,1645556671
Mossamedes,-15.1961,12.1522,77.38,77,100,6.24,AO,1645556671
Khatanga,71.9667,102.5,-3.55,93,99,7.38,RU,1645556671
Nikolskoye,59.7035,30.7861,30.09,96,100,7.96,RU,1645556672
Maceió,-9.6658,-35.7353,87.24,48,20,13.8,BR,1645556577
Ribeira Grande,38.5167,-28.7,61.2,82,75,4.61,PT,1645556672
Evensk,61.95,159.2333,-12.39,72,84,11.36,RU,1645556672
Khovd,48.0056,91.6419,-6.81,83,41,3.67,MN,1645556673
Vigrestad,58.5667,5.7,37.08,78,100,22.84,NO,1645556673
Padang,-0.9492,100.3543,77.52,88,99,3.11,ID,1645556673
Dzhebariki-Khaya,62.2167,135.8,-29.31,100,94,1.19,RU,1645556674
Ternate,0.8,127.4,77.36,78,100,6.87,ID,1645556674
Khilok,51.3674,110.4676,-2.22,98,32,2.95,RU,1645556675
Thompson,55.7435,-97.8558,-3.89,82,100,9.48,CA,1645556675
Inírida,3.8653,-67.9239,93.34,42,100,1.41,CO,1645556676
Zhangzhou,24.5133,117.6556,49.14,97,100,1.86,CN,1645556415
Mucurapo,10.6667,-61.5333,82.26,82,11,11.01,TT,1645556676
Penzance,50.1186,-5.5371,49.21,75,2,18.28,GB,1645556677
Mount Gambier,-37.8333,140.7667,48.11,100,6,0.0,AU,1645556677
Faanui,-16.4833,-151.75,80.94,73,100,14.25,PF,1645556678
Mount Isa,-20.7333,139.5,64.17,63,3,6.91,AU,1645556678
Alta Floresta,-9.8756,-56.0861,76.82,88,100,12.66,BR,1645556397
Airai,-8.9266,125.4092,59.83,98,100,1.83,TL,1645556679
Riyadh,24.6877,46.7219,63.03,20,0,5.91,SA,1645556414
Ahipara,-35.1667,173.1667,63.39,87,13,5.17,NZ,1645556679
Vaini,-21.2,-175.2,78.96,94,75,6.91,TO,1645556679
Ketchikan,55.3422,-131.6461,30.67,47,100,4.61,US,1645556680
Natal,-5.795,-35.2094,84.76,57,5,11.12,BR,1645556460
Aripuanã,-9.1667,-60.6333,82.83,79,75,0.56,BR,1645556680
Xining,36.6167,101.7667,18.68,55,99,4.12,CN,1645556604
Trairi,-3.2778,-39.2689,84.16,66,39,12.5,BR,1645556680
Linqiong,30.4159,103.4609,39.16,89,67,2.3,CN,1645556681
Tonantins,-2.8731,-67.8022,79.23,93,98,2.68,BR,1645556681
Seymchan,62.8833,152.4333,-47.27,100,55,0.16,RU,1645556682
Mukhen,48.1,136.1,-0.69,94,85,6.91,RU,1645556682
Kaitangata,-46.2817,169.8464,54.93,84,84,1.5,NZ,1645556682
Gataivai,-13.7736,-172.388,76.82,80,99,0.31,WS,1645556683
Nyagan,62.1406,65.3936,9.39,97,72,4.54,RU,1645556683
Mabaruma,8.2,-59.7833,78.62,93,79,5.68,GY,1645556594
Nanga Eboko,4.6833,12.3667,77.7,25,27,1.16,CM,1645556683
Isangel,-19.55,169.2667,78.89,84,14,7.81,VU,1645556684
Brae,60.3964,-1.353,40.91,73,99,26.17,GB,1645556684
Port Antonio,18.18,-76.4612,77.95,69,20,11.25,JM,1645556685
Marshall,34.3834,-86.3333,69.78,74,100,13.8,US,1645556685
Hofn,64.2539,-15.2082,32.83,62,100,20.94,IS,1645556685
Taiyuan,37.8694,112.5603,15.66,41,0,4.47,CN,1645556680
Fairbanks,64.8378,-147.7164,23.31,91,100,6.91,US,1645556686
Litovko,49.2361,135.1742,-16.96,100,99,2.3,RU,1645556686
Pangoa,-12.1167,-73.0,87.35,47,68,5.82,PE,1645556686
Guerrero Negro,27.9769,-114.0611,63.3,54,17,16.93,MX,1645556677
Srednekolymsk,67.45,153.6833,-44.54,100,81,6.44,RU,1645556687
Morondava,-20.2833,44.2833,83.62,71,100,5.53,MG,1645556687
Shibetsu,43.659,145.132,17.22,75,99,12.68,JP,1645556687
Jamālpur,24.9167,89.9333,67.05,50,30,4.25,BD,1645556688
Powell,40.1578,-83.0752,58.69,96,100,17.27,US,1645556593
Thurso,58.5927,-3.5259,39.15,72,14,27.56,GB,1645556688
Ambikāpur,23.1167,83.2,59.27,26,0,4.27,IN,1645556688
Grand Gaube,-20.0064,57.6608,80.38,87,92,7.0,MU,1645556689
Almaznyy,48.0448,40.045,46.54,80,98,6.82,RU,1645556689
Olafsvik,64.8945,-23.7142,31.6,60,100,33.6,IS,1645556690
Laguna,38.421,-121.4238,54.46,54,0,5.75,US,1645556690
Seydi,39.4816,62.9137,52.05,36,99,4.05,TM,1645556690
Tyukhtet,56.5389,89.3011,18.86,94,100,5.19,RU,1645556691
Hong Kong,22.2855,114.1577,51.94,91,100,13.0,HK,1645556543
Vila Velha,-20.3297,-40.2925,81.95,78,67,10.0,BR,1645556440
Chapais,49.7834,-74.8492,-2.42,95,100,11.61,CA,1645556565
Rome,43.2128,-75.4557,57.67,63,100,5.75,US,1645556626
Taoudenni,22.6783,-3.9836,85.87,7,100,11.3,ML,1645556692
Adrar,20.5022,-10.0711,84.33,8,83,9.48,MR,1645556692
Flinders,-34.5833,150.8552,71.19,94,100,4.0,AU,1645556692
Severo-Kuril'sk,50.6789,156.125,27.77,90,100,15.01,RU,1645556693
Kikwit,-5.041,18.8162,74.98,80,100,1.12,CD,1645556693
Río Gallegos,-51.6226,-69.2181,78.85,29,75,23.02,AR,1645556693
Northam,51.0333,-4.2167,47.61,83,7,13.13,GB,1645556694
Sur,22.5667,59.5289,71.8,61,0,9.08,OM,1645556428
Zhigansk,66.7697,123.3711,-11.0,98,100,16.58,RU,1645556694
Praia da Vitória,38.7333,-27.0667,56.7,73,99,5.01,PT,1645556694
Vanavara,60.34,102.2797,21.13,94,100,9.13,RU,1645556695
Surin,14.8818,103.4936,65.26,69,87,14.05,TH,1645556695
Muş Province,39.0,41.75,27.54,97,100,4.12,TR,1645556696
Chara,56.9064,118.2631,-0.44,84,52,1.52,RU,1645556696
Pustoshka,56.3355,29.369,29.28,93,100,12.15,RU,1645556696
Reguengos de Monsaraz,38.4253,-7.5349,60.75,32,3,8.99,PT,1645556697
Polovinnoye,54.7914,65.9864,11.66,97,71,7.29,RU,1645556697
Mayskiy,47.6931,40.1025,47.61,76,100,6.08,RU,1645556697
Vila,42.0304,-8.1588,50.88,61,15,4.21,PT,1645556698
Bengkulu,-3.8004,102.2655,76.41,87,100,4.38,ID,1645556698
Aklavik,68.2191,-135.0107,11.12,95,100,6.6,CA,1645556698
Borogontsy,62.6683,131.1683,-31.14,100,20,2.77,RU,1645556699
Głubczyce,50.2009,17.8286,38.82,68,100,7.67,PL,1645556699
Buala,-8.145,159.5921,80.51,81,100,3.98,SB,1645556699
Mahajanga,-15.7167,46.3167,82.47,80,100,15.12,MG,1645556700
Prieska,-29.6641,22.7474,81.05,13,0,7.14,ZA,1645556700
Pińczów,50.5205,20.5265,40.6,78,84,11.1,PL,1645556701
Acapulco de Juárez,16.8634,-99.8901,86.02,52,3,9.55,MX,1645556423
Cherskiy,68.75,161.3,-43.87,100,100,5.73,RU,1645556701
Greenville,35.6127,-77.3663,73.35,63,75,17.27,US,1645556470
Requena,39.4883,-1.1004,49.98,33,0,3.24,ES,1645556443
Dubuque,42.4833,-90.8668,23.63,81,100,16.11,US,1645556702
San Fernando del Valle de Catamarca,-28.4696,-65.7852,79.77,53,18,8.99,AR,1645556702
Volzhskiy,48.7858,44.7797,40.51,82,100,7.7,RU,1645556703
Shache,38.4167,77.2406,33.76,35,94,3.53,CN,1645556703
Jerome,42.7241,-114.5186,18.88,67,0,34.52,US,1645556703
Eenhana,-17.4667,16.3333,70.16,82,97,9.4,NA,1645556704
Tiksi,71.6872,128.8694,-4.31,95,100,9.06,RU,1645556704
Bārmer,25.75,71.3833,70.86,48,0,13.27,IN,1645556705
Timrå,62.487,17.3257,8.28,92,0,3.44,SE,1645556705
Verkhnyaya Toyma,62.2349,44.9985,28.22,97,100,8.12,RU,1645556705
Bonthe,7.5264,-12.505,79.43,79,28,10.51,SL,1645556706
Liwale,-9.7667,37.9333,71.78,92,100,1.61,TZ,1645556706
Heishan,41.6892,122.1128,11.16,51,0,4.79,CN,1645556707
Tongliao,43.6125,122.2653,-10.77,93,5,5.28,CN,1645556425
Tateyama,34.9833,139.8667,39.09,49,77,9.51,JP,1645556707
Hamilton,39.1834,-84.5333,63.45,90,100,19.57,US,1645556707
Ballina,-28.8667,153.5667,71.78,96,43,7.02,AU,1645556708
Sindhnūr,15.7833,76.7667,76.24,42,68,7.05,IN,1645556708
Kahului,20.8947,-156.47,78.06,80,20,14.97,US,1645556708
Esperance,-33.8667,121.9,62.44,66,0,1.68,AU,1645556709
Nemuro,43.3236,145.575,18.88,69,100,21.36,JP,1645556709
Miles City,46.4083,-105.8406,-3.03,59,100,3.44,US,1645556697
Verāval,20.9,70.3667,71.11,81,0,9.55,IN,1645556710
Leer,8.3018,30.1418,84.47,13,95,4.05,SS,1645556425
Mékhé,15.1097,-16.6218,72.16,57,4,14.99,SN,1645556710
Palauig,15.435,119.9045,78.51,77,100,2.82,PH,1645556710
Lagunas,-5.2269,-75.6753,87.46,62,42,2.42,PE,1645556711
Okha,53.5739,142.9478,-7.98,96,23,14.05,RU,1645556711
Porto-Novo,6.4965,2.6036,82.09,76,31,9.37,BJ,1645556711
Saint Paul,44.9444,-93.0933,10.4,83,100,19.57,US,1645556443
Port Moresby,-9.4431,147.1797,75.58,89,100,7.83,PG,1645556567
Peace River,56.2501,-117.286,0.32,88,50,8.03,CA,1645556712
Poronaysk,49.2167,143.1167,-5.85,93,100,5.48,RU,1645556712
Tautira,-17.7333,-149.15,84.22,70,3,9.95,PF,1645556713
Dingle,10.9995,122.6711,74.32,90,100,7.87,PH,1645556713
Cayenne,4.9333,-52.3333,78.84,89,75,14.97,GF,1645556714
Minna,9.6139,6.5569,88.81,11,4,2.35,NG,1645556714
Balkanabat,39.5108,54.3671,49.05,74,11,4.9,TM,1645556714
Doha,25.2867,51.5333,66.18,63,0,8.05,QA,1645556568
Athabasca,54.7169,-113.2854,1.2,77,100,6.35,CA,1645556715
Necochea,-38.5473,-58.7368,74.03,66,4,12.08,AR,1645556715
Narsaq,60.9167,-46.05,3.42,69,100,2.75,GL,1645556716
Nanortalik,60.1432,-45.2371,13.82,75,100,37.98,GL,1645556716
Opuwo,-18.0607,13.84,73.0,78,100,7.61,NA,1645556716
Örnsköldsvik,63.2909,18.7153,4.82,92,100,4.61,SE,1645556717
Coyhaique,-45.5752,-72.0662,75.81,26,0,6.91,CL,1645556717
Hamakita,34.8,137.7833,35.83,74,7,14.12,JP,1645556717
Mokhsogollokh,61.4681,128.9203,-11.61,100,98,1.43,RU,1645556718
Inhambane,-23.865,35.3833,78.78,73,75,11.5,MZ,1645556718
Lagoa,39.05,-27.9833,57.81,83,100,18.95,PT,1645556718
Horadiz,39.4488,47.3353,46.9,71,5,3.29,AZ,1645556719
Whitecourt,54.1502,-115.6855,2.07,76,93,5.44,CA,1645556719
Manta,-0.95,-80.7333,83.98,70,75,11.5,EC,1645556720
Arys,42.4252,68.795,46.62,48,100,3.47,KZ,1645556720
The Valley,18.217,-63.0578,80.74,65,75,12.66,AI,1645556720
Herbrechtingen,48.6217,10.176,45.61,83,100,18.63,DE,1645556721
Kawalu,-7.3817,108.2082,72.36,94,91,1.14,ID,1645556721
Winkler,49.1817,-97.941,-6.88,90,100,13.94,CA,1645556717
Scarborough,54.2797,-0.4044,46.53,74,5,8.01,GB,1645556721
Smithers,54.7804,-127.1743,12.63,73,15,2.66,CA,1645556579
Dunmore East,52.1514,-6.9861,47.68,72,0,2.3,IE,1645556722
Saint Anthony,45.0205,-93.218,8.65,83,100,19.57,US,1645556722
Quartucciu,39.2519,9.1794,51.67,71,20,6.91,IT,1645556723
Farafangana,-22.8167,47.8333,77.2,93,100,37.49,MG,1645556535
Cortez,37.3489,-108.5859,40.51,79,75,9.53,US,1645556723
Pevek,69.7008,170.3133,-28.75,94,100,6.31,RU,1645556723
Gari,59.4307,62.3497,17.98,95,21,6.71,RU,1645556724
Bathsheba,13.2167,-59.5167,80.22,71,11,15.88,BB,1645556724
Zhifang,30.35,114.3167,40.69,85,100,5.44,CN,1645556724
Linjiang,41.8069,126.9078,-10.48,99,48,1.14,CN,1645556725
Berlevåg,70.8578,29.0864,22.95,86,75,16.11,NO,1645556725
Geraldton,-28.7667,114.6,73.81,83,75,17.27,AU,1645556726
Zharkent,44.1628,80.0,29.16,64,18,2.15,KZ,1645556726
Bowen,-20.0167,148.2333,74.62,93,99,7.16,AU,1645556726
Bonavista,48.6499,-53.1147,19.29,47,99,15.93,CA,1645556727
Guarapari,-20.6667,-40.4975,82.29,76,96,13.56,BR,1645556727
Kautokeino,69.0125,23.0412,-5.71,100,79,3.6,NO,1645556727
Wadena,46.4425,-95.1361,1.72,71,100,18.41,US,1645556728
San Juan,-31.5375,-68.5364,70.7,54,94,6.82,AR,1645556208
El Zapote,21.0667,-102.8,75.56,20,0,5.32,MX,1645556728
Krasnosel'kup,65.7,82.4667,21.47,96,98,11.79,RU,1645556729
Safi,32.2994,-9.2372,70.61,40,100,10.31,MA,1645556729
Camacha,33.0833,-16.3333,63.36,72,40,26.46,PT,1645556729
Okhotsk,59.3833,143.3,-11.63,73,0,16.11,RU,1645556730
Kloulklubed,7.0419,134.2556,81.21,78,100,20.11,PW,1645556730
Nyurba,63.2842,118.3319,2.43,98,89,5.84,RU,1645556730
Westport,41.1415,-73.3579,55.36,88,100,6.91,US,1645556731
Beauraing,50.1104,4.9555,49.44,91,100,14.76,BE,1645556731
Taganak,6.0833,118.3,79.48,79,100,6.91,PH,1645556731
Aden,12.7794,45.0367,77.2,70,31,10.74,YE,1645556732
Bucyrus,40.8084,-82.9755,56.46,92,100,20.98,US,1645556732
College,64.8569,-147.8028,24.58,91,100,6.91,US,1645556716
Klaksvík,62.2266,-6.589,38.32,74,100,32.79,FO,1645556733
Dois Vizinhos,-25.7336,-53.0572,86.58,47,90,3.06,BR,1645556733
Salé,34.0389,-6.8166,61.48,77,60,3.44,MA,1645556733
São José da Coroa Grande,-8.8978,-35.1478,83.61,58,0,9.86,BR,1645556734
Coquimbo,-29.9533,-71.3436,69.53,64,0,14.97,CL,1645556596
Chadan,51.2833,91.5833,-16.33,92,67,2.08,RU,1645556734
Kalmar,56.6616,16.3616,30.96,80,0,5.75,SE,1645556734
Kiryat Gat,31.61,34.7642,61.39,64,100,1.72,IL,1645556735
Riacho de Santana,-13.6092,-42.9389,80.56,66,81,5.55,BR,1645556735
Sungai Penuh,-2.0833,101.3833,65.19,96,99,1.25,ID,1645556735
Wenling,28.3669,121.36,40.91,91,100,14.2,CN,1645556736
Bouza,14.4229,6.0428,74.75,7,10,8.63,NE,1645556736
Samarai,-10.6167,150.6667,81.28,81,94,8.28,PG,1645556736
Nome,64.5011,-165.4064,30.27,93,100,6.91,US,1645556737
Santa Cruz de la Sierra,-17.8,-63.1667,92.66,52,75,9.22,BO,1645556737
Makokou,0.5738,12.8642,74.82,78,78,3.76,GA,1645556535
Taltal,-25.4,-70.4833,70.57,69,23,7.92,CL,1645556738
Kol'tsovo,54.9376,83.1825,22.39,93,100,7.11,RU,1645556738
Birnin Kebbi,12.4539,4.1975,81.55,11,5,9.22,NG,1645556738
Papara,-3.9839,-38.7273,84.6,63,73,8.19,BR,1645556739
Port Elizabeth,-33.918,25.5701,67.1,79,0,6.38,ZA,1645556739
Iqaluit,63.7506,-68.5145,-22.31,67,100,6.13,CA,1645556739
Kirgiz-Miyaki,53.6324,54.7979,31.14,94,100,19.73,RU,1645556740
Malartic,48.1335,-78.1328,3.31,92,100,11.48,CA,1645556479
Saint George,37.1041,-113.5841,47.62,43,75,9.22,US,1645556740
Koungheul,13.9833,-14.8,96.4,10,10,5.01,SN,1645556741
Havelock,34.8791,-76.9013,72.05,78,78,8.01,US,1645556741
Port Augusta,-32.5,137.7667,69.71,48,0,7.4,AU,1645556741
Gorontalo,0.5412,123.0595,73.58,89,100,3.53,ID,1645556742
Accra,5.556,-0.1969,82.74,76,99,11.16,GH,1645556736
São João da Barra,-21.6403,-41.0511,82.49,82,98,12.39,BR,1645556742
Jakarta,-6.2146,106.8451,80.53,79,95,4.36,ID,1645556742
Sembabule,-0.0772,31.4567,69.71,66,100,3.8,UG,1645556743
Hambantota,6.1241,81.1185,77.34,100,20,3.44,LK,1645556743
Khasan,42.4308,130.6434,11.66,57,79,23.53,RU,1645556743
Baculin,7.4525,126.5842,76.33,82,100,5.93,PH,1645556744
Bereda,43.2686,-7.5406,49.75,76,37,4.03,ES,1645556744
Eyl,7.9803,49.8164,77.31,81,100,19.33,SO,1645556539
Suda,59.1525,37.5582,30.31,97,100,7.02,RU,1645556744
Tottori-shi,35.5,134.2333,30.18,76,82,7.92,JP,1645556745
Atar,20.5169,-13.0499,88.05,9,99,11.88,MR,1645556745
Sapele,5.8941,5.6767,83.97,66,79,8.7,NG,1645556746
Mitsamiouli,-11.3847,43.2844,81.73,77,100,10.4,KM,1645556746
Moyo,3.6609,31.7247,77.67,19,89,5.23,UG,1645556746
Phalaborwa,-23.943,31.1411,76.75,58,100,11.68,ZA,1645556455
Berdigestyakh,62.0989,126.6992,-6.97,100,97,2.01,RU,1645556747
Biak,-0.9131,122.8766,75.6,80,100,5.28,ID,1645556747
Sinnamary,5.3833,-52.95,79.0,88,50,12.53,GF,1645556748
Muros,42.7762,-9.0603,59.23,61,81,11.27,ES,1645556748
Humaitá,-7.5061,-63.0208,74.19,99,100,4.0,BR,1645556748
Chu,43.5983,73.7614,33.89,70,96,8.41,KZ,1645556748
Hualmay,-11.0964,-77.6139,76.96,70,44,11.18,PE,1645556749
Rumuruti,0.267,36.5389,68.02,55,100,1.74,KE,1645556749
Saint-Louis,16.3333,-15.0,93.81,9,8,7.85,SN,1645556749
Pavino,59.1139,46.1414,33.15,87,100,12.75,RU,1645556750
Concepción,-36.827,-73.0498,67.8,64,20,12.66,CL,1645556750
Atbasar,51.8,68.3333,19.74,97,75,7.52,KZ,1645556750
Christchurch,-43.5333,172.6333,56.03,84,100,6.91,NZ,1645556751
Sibolga,1.7427,98.7792,76.03,92,100,3.8,ID,1645556751
Sterling,39.0062,-77.4286,64.38,88,100,18.41,US,1645556579
Oudtshoorn,-33.5907,22.2014,68.59,65,0,5.32,ZA,1645556751
Hanzhong,33.0728,107.0303,41.07,58,100,0.87,CN,1645556752
Port Hedland,-20.3167,118.5667,82.45,100,40,6.91,AU,1645556752
Aldan,58.6031,125.3894,9.43,97,100,4.36,RU,1645556753
San Quintín,30.4833,-115.95,58.8,57,97,13.04,MX,1645556753
Port-de-Bouc,43.4,4.9833,57.22,47,0,29.93,FR,1645556753
Dunedin,-45.8742,170.5036,55.8,86,89,1.01,NZ,1645556754
Gold Coast,-28.0,153.4333,75.24,96,40,11.5,AU,1645556754
Antofagasta,-23.65,-70.4,70.88,71,39,10.25,CL,1645556700
Banda Aceh,5.5577,95.3222,79.12,80,66,3.09,ID,1645556755
Launceston,-41.45,147.1667,60.8,83,40,5.75,AU,1645556755
Katsuura,35.1333,140.3,39.18,43,60,6.26,JP,1645556756
Bartlesville,36.7473,-95.9808,28.96,54,100,3.44,US,1645556756
Lakes Entrance,-37.8811,147.981,57.16,90,1,5.57,AU,1645556756
Onguday,50.75,86.15,3.13,96,63,3.76,RU,1645556757
Lorengau,-2.0226,147.2712,79.56,82,100,4.14,PG,1645556478
Okoneshnikovo,54.8377,75.0834,26.76,96,100,7.31,RU,1645556757
Kikugawa,34.7563,138.0874,35.76,60,5,18.43,JP,1645556758
Pilot Butte,50.4668,-104.4178,-9.35,81,97,7.72,CA,1645556758
Kingsport,36.5484,-82.5618,71.24,67,75,16.11,US,1645556646
Whitefish,48.4111,-114.3376,9.1,45,0,23.02,US,1645556738
Rio Grande,-32.035,-52.0986,87.91,59,6,16.8,BR,1645556759
Grand-Santi,4.25,-54.3833,80.04,93,68,4.0,GF,1645556759
Teresópolis,-22.4122,-42.9656,77.54,82,100,1.25,BR,1645556759
Kirakira,-10.4544,161.9205,80.4,82,98,2.39,SB,1645556760
Gazojak,41.1875,61.4036,52.38,45,100,7.18,TM,1645556760
Kulhudhuffushi,6.6221,73.07,81.9,70,20,6.46,MV,1645556760
Calatrava,10.595,123.4838,76.68,87,100,6.29,PH,1645556761
Los Amates,15.2667,-89.1,92.82,54,61,4.0,GT,1645556761
Schieder-Schwalenberg,51.8771,9.1954,46.44,95,100,19.37,DE,1645556762
Barra de Tecoanapa,16.5167,-98.75,85.01,53,0,10.27,MX,1645556762
Half Moon Bay,37.4636,-122.4286,53.55,59,75,17.27,US,1645556762
Tabuny,52.7773,78.7896,22.08,90,100,5.99,RU,1645556763
Laas,46.6166,10.7002,44.51,75,8,7.87,IT,1645556763
Zhalantun,48.0,122.7167,-8.61,89,3,6.93,CN,1645556763
Batagay,67.6333,134.6333,-25.26,100,81,4.16,RU,1645556764
Lahat,-3.8,103.5333,73.04,97,100,2.28,ID,1645556764
Le Port,-20.9373,55.2919,80.6,79,100,17.43,RE,1645556765
Vao,-22.6667,167.4833,79.92,80,75,14.38,NC,1645556765
Lyuban',52.7985,28.0048,32.63,71,54,13.89,BY,1645556765
El Bagre,7.5927,-74.8086,92.73,44,46,3.58,CO,1645556766
Grindavik,63.8424,-22.4338,32.47,55,40,29.93,IS,1645556766
Katsina,12.9894,7.6006,75.74,11,5,9.24,NG,1645556766
Altay,47.8667,88.1167,17.33,55,0,9.42,CN,1645556767
Horana,6.7166,80.0619,78.62,94,1,2.68,LK,1645556767
Togur,58.3631,82.8265,23.27,95,100,8.25,RU,1645556767
Carthage,36.8611,10.3316,53.13,71,20,16.11,TN,1645556768
Tubualá,9.5167,-79.0333,94.33,74,98,13.94,PA,1645556768
Denpasar,-8.65,115.2167,73.06,94,75,10.36,ID,1645556724
Kobryn,52.2138,24.3564,33.22,71,15,10.6,BY,1645556768
Kungurtug,50.5994,97.5228,-7.02,94,51,2.1,RU,1645556769
Matagami,49.7502,-77.6328,1.51,71,100,13.8,CA,1645556769
Severnyy,50.677,36.5532,37.44,100,100,11.18,RU,1645556770
Nabire,-3.3667,135.4833,73.56,93,100,4.18,ID,1645556770
Svobodnyy,51.4,128.1333,0.97,93,99,6.42,RU,1645556770
Solnechnyy,50.7214,136.6319,-7.33,96,29,3.24,RU,1645556771
Bosaso,11.2842,49.1816,75.97,67,13,3.04,SO,1645556771
Muscle Shoals,34.7448,-87.6675,74.86,76,100,10.0,US,1645556577
Zamānia,25.4333,83.5667,58.1,47,0,8.43,IN,1645556772
Lingao,19.9103,109.6859,54.34,90,100,13.8,CN,1645556772
Yeppoon,-23.1333,150.7333,76.78,89,97,7.67,AU,1645556772
Carballo,43.213,-8.691,54.82,86,64,4.45,ES,1645556773
Luang Prabang,19.8856,102.1347,62.71,95,49,1.63,LA,1645556773
Bhīmunipatnam,17.8833,83.4333,76.51,84,25,1.41,IN,1645556773
Los Llanos de Aridane,28.6585,-17.9182,62.35,79,0,3.0,ES,1645556774
Merauke,-8.4667,140.3333,77.86,89,100,16.11,ID,1645556774
Souillac,-20.5167,57.5167,80.37,89,100,11.54,MU,1645556774
Emba,48.8264,58.1442,13.6,97,100,4.32,KZ,1645556775
Tessalit,20.1986,1.0114,81.63,7,20,9.62,ML,1645556775
Luganville,-15.5333,167.1667,79.43,86,40,7.65,VU,1645556478
Kansk,56.2017,95.7175,9.59,91,55,4.43,RU,1645556776
San Bartolomé de Tirajana,27.9248,-15.5733,57.67,72,20,13.8,ES,1645556776
Oktyabr'skoye,43.0645,44.7417,30.34,93,1,11.18,RU,1645556776
Mozarlândia,-14.7447,-50.5706,81.43,77,92,3.22,BR,1645556777
Khani,41.9563,42.9566,44.17,82,20,8.61,GE,1645556777
Tazovsky,67.4667,78.7,15.26,96,99,9.78,RU,1645556777
Kuroiso,36.9667,140.05,26.4,81,47,2.24,JP,1645556778
Saravan,39.7196,45.6483,29.05,85,60,5.97,AM,1645556778
Bouna,9.2667,-3.0,83.95,11,100,4.81,CI,1645556779
Kampot,10.6167,104.1833,75.25,82,24,6.35,KH,1645556779
Weinan,34.5036,109.5089,34.7,46,20,1.1,CN,1645556779
Constitución,-35.3333,-72.4167,66.06,60,100,9.8,CL,1645556780
Odienné,9.51,-7.5692,86.56,11,2,4.65,CI,1645556780
La Paz,-16.5,-68.15,58.98,62,75,12.66,BO,1645556781
Hargeisa,9.56,44.065,61.41,63,67,11.43,SO,1645556781
Łapy,52.9911,22.8842,33.26,78,94,6.02,PL,1645556781
São Francisco,-15.9486,-44.8644,83.46,62,78,3.47,BR,1645556679
Qui Nhon,13.7667,109.2333,70.5,83,100,19.1,VN,1645556782
Kharan,28.5833,65.4167,61.59,36,0,10.63,PK,1645556782
Macas,-2.3167,-78.1167,80.78,60,77,5.26,EC,1645556782
Mehamn,71.0357,27.8492,22.91,55,40,6.58,NO,1645556589
Gombong,-7.6072,109.5142,76.84,90,92,2.91,ID,1645556783
Luwuk,-0.9516,122.7875,77.02,81,100,4.88,ID,1645556783
Rassvet,46.8333,40.75,46.49,89,17,11.18,RU,1645556784
Ostrovnoy,68.0531,39.5131,14.65,89,100,5.21,RU,1645556784
Dubbo,-32.25,148.6167,68.13,83,40,9.22,AU,1645556784
Barsovo,61.1667,73.1667,17.73,99,94,6.24,RU,1645556785
Kichera,55.9375,110.0997,-0.17,89,25,3.47,RU,1645556785
Meadow Lake,34.8014,-106.5436,56.17,24,4,16.8,US,1645556547
Ampanihy,-24.7,44.75,76.66,79,100,16.6,MG,1645556786
Sitka,57.0531,-135.33,33.69,51,100,8.05,US,1645556786
Santa Maria,-29.6842,-53.8069,93.09,27,2,6.96,BR,1645556786
San Miguel de Cozumel,20.5083,-86.9458,84.27,73,75,16.11,MX,1645556745
Manggar,-2.8833,108.2667,77.88,87,79,7.61,ID,1645556787
Lashio,22.9333,97.75,46.8,69,0,1.81,MM,1645556787
Huarmey,-10.0681,-78.1522,76.86,71,35,10.67,PE,1645556787
Banjar,-8.19,114.9675,73.26,89,100,5.82,ID,1645556788
Hervey Bay,-25.2986,152.8535,75.31,95,32,7.0,AU,1645556551
Bowling Green,36.9903,-86.4436,60.73,91,100,17.27,US,1645556754
Tazmalt,36.3868,4.3989,50.25,68,0,4.7,DZ,1645556788
Sarangani,5.4033,125.4636,81.68,72,100,22.1,PH,1645556789
Kismayo,-0.3582,42.5454,78.67,85,100,16.04,SO,1645556789
Salinópolis,-0.6136,-47.3561,82.51,77,100,12.53,BR,1645556789
Pacocha,-17.5833,-71.3333,74.32,74,71,7.96,PE,1645556790
Yuanping,38.7153,112.7575,13.69,60,0,4.79,CN,1645556710
Agnibilékrou,7.1344,-3.2047,85.95,32,36,0.94,CI,1645556790
Yashkul',46.1711,45.3435,41.94,78,13,12.5,RU,1645556785
Östersund,63.1792,14.6357,18.05,79,0,14.97,SE,1645556791
Sechura,-5.5569,-80.8222,83.03,52,21,14.97,PE,1645556791
Atlantic City,39.3643,-74.4229,62.33,88,100,13.8,US,1645556759
Cam Ranh,11.9214,109.1591,71.56,73,40,18.41,VN,1645556792
Alekseyevsk,57.8406,108.3492,4.46,98,95,4.76,RU,1645556792
Celestún,20.8667,-90.4,86.2,52,0,5.12,MX,1645556792
Dudinka,69.4058,86.1778,16.86,95,100,12.41,RU,1645556793
Teonthar,24.9833,81.65,60.87,38,0,6.51,IN,1645556793
Jūybār,36.6412,52.9124,50.2,75,88,3.04,IR,1645556793
Fort-Shevchenko,44.5086,50.263,40.53,84,0,10.47,KZ,1645556794
Bahir Dar,11.5936,37.3908,67.35,70,98,10.96,ET,1645556794
Lábrea,-7.2586,-64.7981,78.33,83,99,4.85,BR,1645556794
Mushie,-3.0167,16.9,76.23,81,100,1.34,CD,1645556795
Hurricane,37.1753,-113.2899,45.7,68,100,17.45,US,1645556537
Sabzawār,36.2126,57.6819,47.97,61,95,6.51,IR,1645556795
Tamandaré,-8.7597,-35.1047,83.84,57,0,9.35,BR,1645556796
Belmonte,-15.8631,-38.8828,82.9,67,6,8.01,BR,1645556796
Outlook,51.5001,-107.0513,-4.56,86,9,6.71,CA,1645556797
